{
  "bus_id": "67",
  "lineName": "Hyères Centre (Joffre) - Tour Fondue",
  "direction": "OUTWARD",
  "lineId": "MISTRAL:0067",
  "stops": [
    {
      "name": "Hyères Centre (Joffre)",
      "city": "Hyères",
      "latitude": "43.11975",
      "longitude": "6.13185",
      "stopPointId": "MISTRAL:HYCJOO",
      "accessible": true,
      "times": [
        "6:30",
        "7:15",
        "8:10",
        "9:10",
        "10:10",
        "11:10",
        "12:10",
        "13:35",
        "14:35",
        "16:05",
        "17:10",
        "17:30",
        "18:10",
        "19:30"
      ]
    },
    {
      "name": "Hôtel de Ville (Hyères)",
      "city": "Hyères",
      "latitude": "43.11993",
      "longitude": "6.12876",
      "stopPointId": "MISTRAL:HYHOTN",
      "accessible": true,
      "times": [
        "6:32",
        "7:17",
        "8:12",
        "9:12",
        "10:12",
        "11:12",
        "12:12",
        "13:37",
        "14:37",
        "16:07",
        "17:12",
        "17:32",
        "18:12",
        "19:32"
      ]
    },
    {
      "name": "Soldat Bellon",
      "city": "Hyères",
      "latitude": "43.11846",
      "longitude": "6.12782",
      "stopPointId": "MISTRAL:HYBELO",
      "accessible": true,
      "times": [
        "6:33",
        "7:18",
        "8:13",
        "9:13",
        "10:13",
        "11:13",
        "12:13",
        "13:38",
        "14:38",
        "16:08",
        "17:13",
        "17:33",
        "18:13",
        "19:33"
      ]
    },
    {
      "name": "Victoria",
      "city": "Hyères",
      "latitude": "43.11538",
      "longitude": "6.12524",
      "stopPointId": "MISTRAL:HYVIAO",
      "accessible": true,
      "times": [
        "6:35",
        "7:20",
        "8:15",
        "9:15",
        "10:15",
        "11:15",
        "12:15",
        "13:39",
        "14:39",
        "16:09",
        "17:14",
        "17:34",
        "18:14",
        "19:34"
      ]
    },
    {
      "name": "Grand Marché",
      "city": "Hyères",
      "latitude": "43.11114",
      "longitude": "6.12402",
      "stopPointId": "MISTRAL:HYGMAO",
      "accessible": true,
      "times": [
        "6:37",
        "7:22",
        "8:17",
        "9:17",
        "10:17",
        "11:17",
        "12:17",
        "13:42",
        "14:42",
        "16:12",
        "17:17",
        "17:37",
        "18:17",
        "19:37"
      ]
    },
    {
      "name": "Gare (Hyères)",
      "city": "Hyères",
      "latitude": "43.10884",
      "longitude": "6.12507",
      "stopPointId": "MISTRAL:HYGARS",
      "accessible": true,
      "times": [
        "6:39",
        "7:24",
        "8:19",
        "9:19",
        "10:19",
        "11:19",
        "12:19",
        "13:43",
        "14:43",
        "16:13",
        "17:18",
        "17:38",
        "18:18",
        "19:38"
      ]
    },
    {
      "name": "Guynemer (Hyères)",
      "city": "Hyères",
      "latitude": "43.10707",
      "longitude": "6.12725",
      "stopPointId": "MISTRAL:HYGUYS",
      "accessible": true,
      "times": [
        "6:40",
        "7:25",
        "8:20",
        "9:20",
        "10:20",
        "11:20",
        "12:20",
        "13:44",
        "14:44",
        "16:14",
        "17:19",
        "17:39",
        "18:19",
        "19:39"
      ]
    },
    {
      "name": "Espace 3000",
      "city": "Hyères",
      "latitude": "43.10548",
      "longitude": "6.12792",
      "stopPointId": "MISTRAL:HYES3O",
      "accessible": true,
      "times": [
        "6:40",
        "7:25",
        "8:20",
        "9:20",
        "10:20",
        "11:20",
        "12:20",
        "13:44",
        "14:44",
        "16:14",
        "17:19",
        "17:39",
        "18:19",
        "19:39"
      ]
    },
    {
      "name": "Colline Mimosas",
      "city": "Hyères",
      "latitude": "43.10196",
      "longitude": "6.12976",
      "stopPointId": "MISTRAL:HYMIMO",
      "accessible": true,
      "times": [
        "6:41",
        "7:26",
        "8:21",
        "9:21",
        "10:21",
        "11:21",
        "12:21",
        "13:45",
        "14:45",
        "16:15",
        "17:20",
        "17:40",
        "18:20",
        "19:40"
      ]
    },
    {
      "name": "Nartettes",
      "city": "Hyères",
      "latitude": "43.10087",
      "longitude": "6.13134",
      "stopPointId": "MISTRAL:HYNARO",
      "accessible": true,
      "times": [
        "6:41",
        "7:27",
        "8:22",
        "9:22",
        "10:22",
        "11:22",
        "12:22",
        "13:46",
        "14:46",
        "16:16",
        "17:21",
        "17:41",
        "18:21",
        "19:41"
      ]
    },
    {
      "name": "Palyvestre",
      "city": "Hyères",
      "latitude": "43.09548",
      "longitude": "6.13616",
      "stopPointId": "MISTRAL:HYPLYO",
      "accessible": true,
      "times": [
        "6:43",
        "7:28",
        "8:23",
        "9:24",
        "10:24",
        "11:24",
        "12:24",
        "13:48",
        "14:48",
        "16:18",
        "17:23",
        "17:43",
        "18:22",
        "19:42"
      ]
    },
    {
      "name": "Peupliers",
      "city": "Hyères",
      "latitude": "43.09302",
      "longitude": "6.14004",
      "stopPointId": "MISTRAL:HYPEUS",
      "accessible": true,
      "times": [
        "6:43",
        "7:29",
        "8:24",
        "9:25",
        "10:25",
        "11:25",
        "12:25",
        "13:49",
        "14:49",
        "16:19",
        "17:24",
        "17:44",
        "18:23",
        "19:43"
      ]
    },
    {
      "name": "P+R Arromanches 1",
      "city": "Hyères",
      "latitude": "43.08304",
      "longitude": "6.14962",
      "stopPointId": "MISTRAL:HYPA1O",
      "accessible": true,
      "times": [
        "6:46",
        "7:32",
        "8:27",
        "9:28",
        "10:28",
        "11:28",
        "12:28",
        "13:52",
        "14:52",
        "16:22",
        "17:27",
        "17:47",
        "18:26",
        "19:46"
      ]
    },
    {
      "name": "Arromanches",
      "city": "Hyères",
      "latitude": "43.08228",
      "longitude": "6.15141",
      "stopPointId": "MISTRAL:HYARRS",
      "accessible": true,
      "times": [
        "6:46",
        "7:32",
        "8:27",
        "9:28",
        "10:28",
        "11:28",
        "12:28",
        "13:52",
        "14:52",
        "16:22",
        "17:27",
        "17:47",
        "18:26",
        "19:46"
      ]
    },
    {
      "name": "Port La Gavine",
      "city": "Hyères",
      "latitude": "43.08074",
      "longitude": "6.15389",
      "stopPointId": "MISTRAL:HYPLGO",
      "accessible": true,
      "times": [
        "6:47",
        "7:33",
        "8:28",
        "9:29",
        "10:29",
        "11:29",
        "12:29",
        "13:53",
        "14:53",
        "16:23",
        "17:28",
        "17:48",
        "18:27",
        "19:47"
      ]
    },
    {
      "name": "Potinière",
      "city": "Hyères",
      "latitude": "43.07824",
      "longitude": "6.15389",
      "stopPointId": "MISTRAL:HYPTNO",
      "accessible": true,
      "times": [
        "6:48",
        "7:34",
        "8:29",
        "9:30",
        "10:30",
        "11:30",
        "12:30",
        "13:54",
        "14:54",
        "16:24",
        "17:29",
        "17:49",
        "18:28",
        "19:48"
      ]
    },
    {
      "name": "Bona",
      "city": "Hyères",
      "latitude": "43.07571",
      "longitude": "6.15357",
      "stopPointId": "MISTRAL:HYBONO",
      "accessible": true,
      "times": [
        "6:48",
        "7:35",
        "8:30",
        "9:31",
        "10:31",
        "11:31",
        "12:31",
        "13:55",
        "14:55",
        "16:25",
        "17:30",
        "17:50",
        "18:28",
        "19:48"
      ]
    },
    {
      "name": "Jean Bart",
      "city": "Hyères",
      "latitude": "43.07539",
      "longitude": "6.14927",
      "stopPointId": "MISTRAL:HYJBAN",
      "accessible": true,
      "times": [
        "6:49",
        "7:36",
        "8:31",
        "9:32",
        "10:32",
        "11:32",
        "12:32",
        "13:56",
        "14:56",
        "16:26",
        "17:31",
        "17:51",
        "18:29",
        "19:49"
      ]
    },
    {
      "name": "La Capte",
      "city": "Hyères",
      "latitude": "43.06564",
      "longitude": "6.14709",
      "stopPointId": "MISTRAL:HYCPTO",
      "accessible": true,
      "times": [
        "6:52",
        "7:39",
        "8:34",
        "9:35",
        "10:35",
        "11:35",
        "12:35",
        "13:59",
        "14:59",
        "16:29",
        "17:34",
        "17:54",
        "18:32",
        "19:52"
      ]
    },
    {
      "name": "La Vigie",
      "city": "Hyères",
      "latitude": "43.0608",
      "longitude": "6.14702",
      "stopPointId": "MISTRAL:HYVIGO",
      "accessible": true,
      "times": [
        "6:53",
        "7:40",
        "8:35",
        "9:36",
        "10:36",
        "11:36",
        "12:36",
        "14:00",
        "15:00",
        "16:30",
        "17:35",
        "17:55",
        "18:33",
        "19:53"
      ]
    },
    {
      "name": "Thalasso",
      "city": "Hyères",
      "latitude": "43.05809",
      "longitude": "6.14684",
      "stopPointId": "MISTRAL:HYTHAO",
      "accessible": true,
      "times": [
        "6:53",
        "7:41",
        "8:36",
        "9:37",
        "10:37",
        "11:37",
        "12:37",
        "14:01",
        "15:01",
        "16:31",
        "17:36",
        "17:56",
        "18:34",
        "19:54"
      ]
    },
    {
      "name": "Campéoles",
      "city": "Hyères",
      "latitude": "43.05645",
      "longitude": "6.1469",
      "stopPointId": "MISTRAL:HYCPLO",
      "accessible": true,
      "times": [
        "6:54",
        "7:41",
        "8:36",
        "9:38",
        "10:38",
        "11:38",
        "12:37",
        "14:01",
        "15:01",
        "16:31",
        "17:36",
        "17:56",
        "18:34",
        "19:54"
      ]
    },
    {
      "name": "Ch. Thalassa",
      "city": "Hyères",
      "latitude": "43.05095",
      "longitude": "6.14671",
      "stopPointId": "MISTRAL:HYCTHO",
      "accessible": true,
      "times": [
        "6:54",
        "7:42",
        "8:37",
        "9:39",
        "10:39",
        "11:39",
        "12:38",
        "14:02",
        "15:02",
        "16:32",
        "17:37",
        "17:57",
        "18:35",
        "19:55"
      ]
    },
    {
      "name": "Bergerie",
      "city": "Hyères",
      "latitude": "43.04811",
      "longitude": "6.14642",
      "stopPointId": "MISTRAL:HYBERO",
      "accessible": true,
      "times": [
        "6:55",
        "7:43",
        "8:38",
        "9:40",
        "10:40",
        "11:40",
        "12:39",
        "14:03",
        "15:03",
        "16:33",
        "17:38",
        "17:58",
        "18:36",
        "19:56"
      ]
    },
    {
      "name": "Pousset",
      "city": "Hyères",
      "latitude": "43.04373",
      "longitude": "6.14576",
      "stopPointId": "MISTRAL:HYPOUO",
      "accessible": true,
      "times": [
        "6:56",
        "7:44",
        "8:39",
        "9:42",
        "10:42",
        "11:42",
        "12:39",
        "14:03",
        "15:03",
        "16:33",
        "17:38",
        "17:58",
        "18:36",
        "19:56"
      ]
    },
    {
      "name": "Badine",
      "city": "Hyères",
      "latitude": "43.04126",
      "longitude": "6.14529",
      "stopPointId": "MISTRAL:HYBADO",
      "accessible": true,
      "times": [
        "6:56",
        "7:45",
        "8:40",
        "9:42",
        "10:42",
        "11:42",
        "12:40",
        "14:04",
        "15:04",
        "16:34",
        "17:39",
        "17:59",
        "18:37",
        "19:57"
      ]
    },
    {
      "name": "Arbanais",
      "city": "Hyères",
      "latitude": "43.03653",
      "longitude": "6.1438",
      "stopPointId": "MISTRAL:HYARBO",
      "accessible": true,
      "times": [
        "6:57",
        "7:46",
        "8:41",
        "9:44",
        "10:44",
        "11:44",
        "12:41",
        "14:05",
        "15:05",
        "16:35",
        "17:40",
        "18:00",
        "18:38",
        "19:58"
      ]
    },
    {
      "name": "Renée Sabran",
      "city": "Hyères",
      "latitude": "43.03808",
      "longitude": "6.13683",
      "stopPointId": "MISTRAL:HYSABN",
      "accessible": true,
      "times": [
        "6:59",
        "7:48",
        "8:43",
        "9:46",
        "10:46",
        "11:46",
        "12:43",
        "14:07",
        "15:07",
        "16:37",
        "17:42",
        "18:02",
        "18:40",
        "20:00"
      ]
    },
    {
      "name": "Giens",
      "city": "Hyères",
      "latitude": "43.03806",
      "longitude": "6.13205",
      "stopPointId": "MISTRAL:HYGIEE",
      "accessible": true,
      "times": [
        "7:00",
        "7:49",
        "8:44",
        "9:47",
        "10:47",
        "11:47",
        "12:44",
        "14:08",
        "15:08",
        "16:38",
        "17:43",
        "18:03",
        "18:41",
        "20:01"
      ]
    },
    {
      "name": "Renée Sabran",
      "city": "Hyères",
      "latitude": "43.03783",
      "longitude": "6.13759",
      "stopPointId": "MISTRAL:HYSABS",
      "accessible": true,
      "times": [
        "7:01",
        "7:50",
        "8:45",
        "9:48",
        "10:48",
        "11:48",
        "12:45",
        "14:09",
        "15:09",
        "16:39",
        "17:44",
        "18:04",
        "18:42",
        "20:02"
      ]
    },
    {
      "name": "Arbanais",
      "city": "Hyères",
      "latitude": "43.03619",
      "longitude": "6.14369",
      "stopPointId": "MISTRAL:HYARBS",
      "accessible": true,
      "times": [
        "7:04",
        "7:53",
        "8:48",
        "9:51",
        "10:51",
        "11:51",
        "12:48",
        "14:12",
        "15:12",
        "16:42",
        "17:47",
        "18:07",
        "18:45",
        "20:05"
      ]
    },
    {
      "name": "Polynésie",
      "city": "Hyères",
      "latitude": "43.03308",
      "longitude": "6.14794",
      "stopPointId": "MISTRAL:HYPOLS",
      "accessible": true,
      "times": [
        "7:05",
        "7:54",
        "8:49",
        "9:52",
        "10:52",
        "11:52",
        "12:49",
        "14:13",
        "15:13",
        "16:43",
        "17:48",
        "18:08",
        "18:46",
        "20:06"
      ]
    },
    {
      "name": "Estérel",
      "city": "Hyères",
      "latitude": "43.03013",
      "longitude": "6.15473",
      "stopPointId": "MISTRAL:HYESTS",
      "accessible": true,
      "times": [
        "7:06",
        "7:55",
        "8:50",
        "9:53",
        "10:53",
        "11:53",
        "12:50",
        "14:14",
        "15:14",
        "16:44",
        "17:49",
        "18:09",
        "18:47",
        "20:07"
      ]
    },
    {
      "name": "Tour Fondue",
      "city": "Hyères",
      "latitude": "43.02777",
      "longitude": "6.15503",
      "stopPointId": "MISTRAL:HYTFOO",
      "accessible": true,
      "times": [
        "7:08",
        "7:57",
        "8:52",
        "9:55",
        "10:55",
        "11:55",
        "12:52",
        "14:16",
        "15:16",
        "16:46",
        "17:51",
        "18:11",
        "18:49",
        "20:09"
      ]
    }
  ],
  "notes": []
}