{
  "bus_id": "72",
  "lineName": "Langevin - Gare (Ollioules/Sanary)",
  "direction": "OUTWARD",
  "lineId": "MISTRAL:0072",
  "stops": [
    {
      "name": "Langevin",
      "city": "La Seyne-sur-Mer",
      "latitude": "43.11525",
      "longitude": "5.85463",
      "stopPointId": "MISTRAL:SELANS",
      "accessible": true,
      "times": [
        "6:50",
        "7:35",
        "8:20",
        "9:05",
        "9:50",
        "10:35",
        "11:20",
        "12:05",
        "12:50",
        "13:35",
        "14:20",
        "15:05",
        "15:50",
        "16:35",
        "17:20",
        "18:05",
        "18:50",
        "19:35"
      ]
    },
    {
      "name": "Langevin",
      "city": "La Seyne-sur-Mer",
      "latitude": "43.11541",
      "longitude": "5.85391",
      "stopPointId": "MISTRAL:SELANN",
      "accessible": true,
      "times": [
        "6:51",
        "7:36",
        "8:21",
        "9:06",
        "9:51",
        "10:36",
        "11:21",
        "12:06",
        "12:51",
        "13:36",
        "14:21",
        "15:06",
        "15:51",
        "16:36",
        "17:21",
        "18:06",
        "18:51",
        "19:36"
      ]
    },
    {
      "name": "Bruxelles",
      "city": "La Seyne-sur-Mer",
      "latitude": "43.11674",
      "longitude": "5.84995",
      "stopPointId": "MISTRAL:SEBRUN",
      "accessible": true,
      "times": [
        "6:52",
        "7:37",
        "8:22",
        "9:07",
        "9:52",
        "10:37",
        "11:22",
        "12:07",
        "12:52",
        "13:37",
        "14:22",
        "15:07",
        "15:52",
        "16:37",
        "17:22",
        "18:07",
        "18:52",
        "19:37"
      ]
    },
    {
      "name": "Entreprises",
      "city": "Six-Fours-les-Plages",
      "latitude": "43.11738",
      "longitude": "5.84522",
      "stopPointId": "MISTRAL:SIENTN",
      "accessible": true,
      "times": [
        "6:53",
        "7:38",
        "8:23",
        "9:08",
        "9:53",
        "10:38",
        "11:23",
        "12:08",
        "12:53",
        "13:38",
        "14:23",
        "15:08",
        "15:53",
        "16:38",
        "17:23",
        "18:08",
        "18:53",
        "19:38"
      ]
    },
    {
      "name": "L'Europe",
      "city": "Six-Fours-les-Plages",
      "latitude": "43.11746",
      "longitude": "5.84244",
      "stopPointId": "MISTRAL:SIEURN",
      "accessible": true,
      "times": [
        "6:53",
        "7:38",
        "8:23",
        "9:08",
        "9:53",
        "10:39",
        "11:24",
        "12:09",
        "12:54",
        "13:39",
        "14:24",
        "15:09",
        "15:54",
        "16:39",
        "17:24",
        "18:09",
        "18:54",
        "19:39"
      ]
    },
    {
      "name": "Avenir",
      "city": "Six-Fours-les-Plages",
      "latitude": "43.11527",
      "longitude": "5.84227",
      "stopPointId": "MISTRAL:SIAVEO",
      "accessible": true,
      "times": [
        "6:54",
        "7:39",
        "8:24",
        "9:09",
        "9:54",
        "10:39",
        "11:24",
        "12:09",
        "12:54",
        "13:39",
        "14:24",
        "15:09",
        "15:54",
        "16:39",
        "17:24",
        "18:09",
        "18:54",
        "19:39"
      ]
    },
    {
      "name": "Négadoux",
      "city": "Six-Fours-les-Plages",
      "latitude": "43.10857",
      "longitude": "5.84305",
      "stopPointId": "MISTRAL:SINEGO",
      "accessible": true,
      "times": [
        "6:55",
        "7:40",
        "8:25",
        "9:10",
        "9:55",
        "10:41",
        "11:26",
        "12:11",
        "12:56",
        "13:41",
        "14:26",
        "15:11",
        "15:56",
        "16:41",
        "17:26",
        "18:11",
        "18:56",
        "19:41"
      ]
    },
    {
      "name": "Léry",
      "city": "La Seyne-sur-Mer",
      "latitude": "43.10929",
      "longitude": "5.85008",
      "stopPointId": "MISTRAL:SELERS",
      "accessible": true,
      "times": [
        "6:57",
        "7:42",
        "8:27",
        "9:12",
        "9:57",
        "10:43",
        "11:28",
        "12:13",
        "12:58",
        "13:43",
        "14:28",
        "15:13",
        "15:58",
        "16:43",
        "17:28",
        "18:13",
        "18:58",
        "19:43"
      ]
    },
    {
      "name": "Hôtels",
      "city": "La Seyne-sur-Mer",
      "latitude": "43.10626",
      "longitude": "5.85089",
      "stopPointId": "MISTRAL:SEHOTO",
      "accessible": true,
      "times": [
        "6:58",
        "7:43",
        "8:28",
        "9:13",
        "9:58",
        "10:44",
        "11:29",
        "12:14",
        "12:59",
        "13:44",
        "14:29",
        "15:14",
        "15:59",
        "16:44",
        "17:29",
        "18:14",
        "18:59",
        "19:44"
      ]
    },
    {
      "name": "Parc Aquatique",
      "city": "La Seyne-sur-Mer",
      "latitude": "43.10455",
      "longitude": "5.85255",
      "stopPointId": "MISTRAL:SEPAQS",
      "accessible": true,
      "times": [
        "6:58",
        "7:43",
        "8:28",
        "9:13",
        "9:58",
        "10:44",
        "11:29",
        "12:14",
        "12:59",
        "13:44",
        "14:29",
        "15:14",
        "15:59",
        "16:44",
        "17:29",
        "18:14",
        "18:59",
        "19:44"
      ]
    },
    {
      "name": "Espace Santé",
      "city": "La Seyne-sur-Mer",
      "latitude": "43.10395",
      "longitude": "5.85356",
      "stopPointId": "MISTRAL:SEESPO",
      "accessible": true,
      "times": [
        "6:58",
        "7:43",
        "8:28",
        "9:13",
        "9:58",
        "10:44",
        "11:29",
        "12:14",
        "12:59",
        "13:44",
        "14:29",
        "15:14",
        "15:59",
        "16:44",
        "17:29",
        "18:14",
        "18:59",
        "19:44"
      ]
    },
    {
      "name": "Mimosas (Six Fours)",
      "city": "La Seyne-sur-Mer",
      "latitude": "43.1",
      "longitude": "5.85297",
      "stopPointId": "MISTRAL:SIMIMO",
      "accessible": true,
      "times": [
        "7:00",
        "7:45",
        "8:30",
        "9:15",
        "10:00",
        "10:46",
        "11:31",
        "12:16",
        "13:01",
        "13:46",
        "14:31",
        "15:16",
        "16:01",
        "16:46",
        "17:31",
        "18:16",
        "19:01",
        "19:46"
      ]
    },
    {
      "name": "Denans",
      "city": "Six-Fours-les-Plages",
      "latitude": "43.09668",
      "longitude": "5.84982",
      "stopPointId": "MISTRAL:SIDENO",
      "accessible": true,
      "times": [
        "7:01",
        "7:46",
        "8:31",
        "9:16",
        "10:01",
        "10:48",
        "11:33",
        "12:18",
        "13:03",
        "13:48",
        "14:33",
        "15:18",
        "16:03",
        "16:48",
        "17:33",
        "18:18",
        "19:03",
        "19:48"
      ]
    },
    {
      "name": "Chemin du Fort",
      "city": "Six-Fours-les-Plages",
      "latitude": "43.09497",
      "longitude": "5.84725",
      "stopPointId": "MISTRAL:SICFOO",
      "accessible": true,
      "times": [
        "7:02",
        "7:47",
        "8:32",
        "9:17",
        "10:02",
        "10:49",
        "11:34",
        "12:19",
        "13:04",
        "13:49",
        "14:34",
        "15:19",
        "16:04",
        "16:49",
        "17:34",
        "18:19",
        "19:04",
        "19:49"
      ]
    },
    {
      "name": "Stade du Verger",
      "city": "Six-Fours-les-Plages",
      "latitude": "43.09338",
      "longitude": "5.84352",
      "stopPointId": "MISTRAL:SISVEO",
      "accessible": true,
      "times": [
        "7:03",
        "7:48",
        "8:33",
        "9:18",
        "10:03",
        "10:50",
        "11:35",
        "12:20",
        "13:05",
        "13:50",
        "14:35",
        "15:20",
        "16:05",
        "16:50",
        "17:35",
        "18:20",
        "19:05",
        "19:50"
      ]
    },
    {
      "name": "Hôtel de Ville (Six Fours)",
      "city": "Six-Fours-les-Plages",
      "latitude": "43.0936",
      "longitude": "5.84059",
      "stopPointId": "MISTRAL:SIHVIN",
      "accessible": true,
      "times": [
        "7:04",
        "7:49",
        "8:34",
        "9:19",
        "10:04",
        "10:51",
        "11:36",
        "12:21",
        "13:06",
        "13:51",
        "14:36",
        "15:21",
        "16:06",
        "16:51",
        "17:36",
        "18:21",
        "19:06",
        "19:51"
      ]
    },
    {
      "name": "Pont du Brusc",
      "city": "Six-Fours-les-Plages",
      "latitude": "43.09462",
      "longitude": "5.83476",
      "stopPointId": "MISTRAL:SIPTBN",
      "accessible": true,
      "times": [
        "7:05",
        "7:50",
        "8:35",
        "9:20",
        "10:05",
        "10:53",
        "11:38",
        "12:23",
        "13:08",
        "13:53",
        "14:38",
        "15:23",
        "16:08",
        "16:53",
        "17:38",
        "18:23",
        "19:08",
        "19:53"
      ]
    },
    {
      "name": "Barras",
      "city": "Six-Fours-les-Plages",
      "latitude": "43.08949",
      "longitude": "5.82948",
      "stopPointId": "MISTRAL:SIBARO",
      "accessible": true,
      "times": [
        "7:06",
        "7:51",
        "8:36",
        "9:21",
        "10:06",
        "10:54",
        "11:39",
        "12:24",
        "13:09",
        "13:54",
        "14:39",
        "15:24",
        "16:09",
        "16:54",
        "17:39",
        "18:24",
        "19:09",
        "19:54"
      ]
    },
    {
      "name": "Courtaude",
      "city": "Six-Fours-les-Plages",
      "latitude": "43.08666",
      "longitude": "5.82522",
      "stopPointId": "MISTRAL:SICORO",
      "accessible": true,
      "times": [
        "7:07",
        "7:52",
        "8:37",
        "9:22",
        "10:07",
        "10:55",
        "11:40",
        "12:25",
        "13:10",
        "13:55",
        "14:40",
        "15:25",
        "16:10",
        "16:55",
        "17:40",
        "18:25",
        "19:10",
        "19:55"
      ]
    },
    {
      "name": "Jaumard",
      "city": "Six-Fours-les-Plages",
      "latitude": "43.08421",
      "longitude": "5.82258",
      "stopPointId": "MISTRAL:SIJAUO",
      "accessible": true,
      "times": [
        "7:08",
        "7:53",
        "8:38",
        "9:23",
        "10:08",
        "10:56",
        "11:41",
        "12:26",
        "13:11",
        "13:56",
        "14:41",
        "15:26",
        "16:11",
        "16:56",
        "17:41",
        "18:26",
        "19:11",
        "19:56"
      ]
    },
    {
      "name": "Ch. Malogineste",
      "city": "Six-Fours-les-Plages",
      "latitude": "43.08141",
      "longitude": "5.81927",
      "stopPointId": "MISTRAL:SICMAO",
      "accessible": true,
      "times": [
        "7:08",
        "7:53",
        "8:38",
        "9:23",
        "10:08",
        "10:56",
        "11:41",
        "12:26",
        "13:11",
        "13:56",
        "14:41",
        "15:26",
        "16:11",
        "16:56",
        "17:41",
        "18:26",
        "19:11",
        "19:56"
      ]
    },
    {
      "name": "Roches Blanches",
      "city": "Six-Fours-les-Plages",
      "latitude": "43.07649",
      "longitude": "5.81565",
      "stopPointId": "MISTRAL:SIROBO",
      "accessible": true,
      "times": [
        "7:10",
        "7:55",
        "8:40",
        "9:25",
        "10:10",
        "10:58",
        "11:43",
        "12:28",
        "13:13",
        "13:58",
        "14:43",
        "15:28",
        "16:13",
        "16:58",
        "17:43",
        "18:28",
        "19:13",
        "19:58"
      ]
    },
    {
      "name": "Av des Palmiers",
      "city": "Six-Fours-les-Plages",
      "latitude": "43.07774",
      "longitude": "5.80948",
      "stopPointId": "MISTRAL:SIPALN",
      "accessible": true,
      "times": [
        "7:10",
        "7:55",
        "8:40",
        "9:25",
        "10:10",
        "10:58",
        "11:43",
        "12:28",
        "13:13",
        "13:58",
        "14:43",
        "15:28",
        "16:13",
        "16:58",
        "17:43",
        "18:28",
        "19:13",
        "19:58"
      ]
    },
    {
      "name": "Le Cros",
      "city": "Six-Fours-les-Plages",
      "latitude": "43.0788",
      "longitude": "5.8043",
      "stopPointId": "MISTRAL:SICROO",
      "accessible": true,
      "times": [
        "7:11",
        "7:56",
        "8:41",
        "9:26",
        "10:11",
        "10:59",
        "11:44",
        "12:29",
        "13:14",
        "13:59",
        "14:44",
        "15:29",
        "16:14",
        "16:59",
        "17:44",
        "18:29",
        "19:14",
        "19:59"
      ]
    },
    {
      "name": "Le Mail",
      "city": "Six-Fours-les-Plages",
      "latitude": "43.07661",
      "longitude": "5.80627",
      "stopPointId": "MISTRAL:SIMAIS",
      "accessible": true,
      "times": [
        "7:12",
        "7:57",
        "8:42",
        "9:27",
        "10:12",
        "11:00",
        "11:45",
        "12:30",
        "13:15",
        "14:00",
        "14:45",
        "15:30",
        "16:15",
        "17:00",
        "17:45",
        "18:30",
        "19:15",
        "20:00"
      ]
    },
    {
      "name": "Av des Palmiers",
      "city": "Six-Fours-les-Plages",
      "latitude": "43.07761",
      "longitude": "5.80883",
      "stopPointId": "MISTRAL:SIPALS",
      "accessible": true,
      "times": [
        "7:12",
        "7:57",
        "8:42",
        "9:27",
        "10:12",
        "11:01",
        "11:46",
        "12:31",
        "13:16",
        "14:01",
        "14:46",
        "15:31",
        "16:16",
        "17:01",
        "17:46",
        "18:31",
        "19:16",
        "20:01"
      ]
    },
    {
      "name": "Faïsses",
      "city": "Six-Fours-les-Plages",
      "latitude": "43.07893",
      "longitude": "5.80986",
      "stopPointId": "MISTRAL:SIFAIE",
      "accessible": true,
      "times": [
        "7:13",
        "7:58",
        "8:43",
        "9:28",
        "10:13",
        "11:01",
        "11:46",
        "12:31",
        "13:16",
        "14:01",
        "14:46",
        "15:31",
        "16:16",
        "17:01",
        "17:46",
        "18:31",
        "19:16",
        "20:01"
      ]
    },
    {
      "name": "Malogineste",
      "city": "Six-Fours-les-Plages",
      "latitude": "43.08281",
      "longitude": "5.81211",
      "stopPointId": "MISTRAL:SIMALE",
      "accessible": true,
      "times": [
        "7:14",
        "7:59",
        "8:44",
        "9:29",
        "10:14",
        "11:02",
        "11:47",
        "12:32",
        "13:17",
        "14:02",
        "14:47",
        "15:32",
        "16:17",
        "17:02",
        "17:47",
        "18:32",
        "19:17",
        "20:02"
      ]
    },
    {
      "name": "Marestan",
      "city": "Six-Fours-les-Plages",
      "latitude": "43.0854",
      "longitude": "5.8079",
      "stopPointId": "MISTRAL:SIMARE",
      "accessible": true,
      "times": [
        "7:15",
        "8:00",
        "8:45",
        "9:30",
        "10:15",
        "11:03",
        "11:48",
        "12:33",
        "13:18",
        "14:03",
        "14:48",
        "15:33",
        "16:18",
        "17:03",
        "17:48",
        "18:33",
        "19:18",
        "20:03"
      ]
    },
    {
      "name": "Rayolet",
      "city": "Six-Fours-les-Plages",
      "latitude": "43.08749",
      "longitude": "5.80976",
      "stopPointId": "MISTRAL:SIRAYE",
      "accessible": true,
      "times": [
        "7:15",
        "8:00",
        "8:45",
        "9:30",
        "10:15",
        "11:04",
        "11:49",
        "12:34",
        "13:19",
        "14:04",
        "14:49",
        "15:34",
        "16:19",
        "17:04",
        "17:49",
        "18:34",
        "19:19",
        "20:04"
      ]
    },
    {
      "name": "Baigneurs",
      "city": "Six-Fours-les-Plages",
      "latitude": "43.09104",
      "longitude": "5.81118",
      "stopPointId": "MISTRAL:SIBAIE",
      "accessible": true,
      "times": [
        "7:16",
        "8:01",
        "8:46",
        "9:31",
        "10:16",
        "11:05",
        "11:50",
        "12:35",
        "13:20",
        "14:05",
        "14:50",
        "15:35",
        "16:20",
        "17:05",
        "17:50",
        "18:35",
        "19:20",
        "20:05"
      ]
    },
    {
      "name": "Port Coudoulière",
      "city": "Six-Fours-les-Plages",
      "latitude": "43.0968",
      "longitude": "5.8126",
      "stopPointId": "MISTRAL:SIPCOE",
      "accessible": true,
      "times": [
        "7:17",
        "8:02",
        "8:47",
        "9:32",
        "10:17",
        "11:07",
        "11:52",
        "12:36",
        "13:21",
        "14:06",
        "14:51",
        "15:36",
        "16:22",
        "17:07",
        "17:52",
        "18:37",
        "19:22",
        "20:07"
      ]
    },
    {
      "name": "Méditerranée",
      "city": "Six-Fours-les-Plages",
      "latitude": "43.10093",
      "longitude": "5.8122",
      "stopPointId": "MISTRAL:SIMEDE",
      "accessible": true,
      "times": [
        "7:18",
        "8:03",
        "8:48",
        "9:33",
        "10:18",
        "11:08",
        "11:53",
        "12:37",
        "13:22",
        "14:07",
        "14:52",
        "15:37",
        "16:23",
        "17:08",
        "17:53",
        "18:38",
        "19:23",
        "20:08"
      ]
    },
    {
      "name": "Les Hoirs",
      "city": "Six-Fours-les-Plages",
      "latitude": "43.10378",
      "longitude": "5.8129",
      "stopPointId": "MISTRAL:SIHOIE",
      "accessible": true,
      "times": [
        "7:18",
        "8:03",
        "8:48",
        "9:33",
        "10:18",
        "11:08",
        "11:53",
        "12:38",
        "13:23",
        "14:08",
        "14:53",
        "15:38",
        "16:23",
        "17:08",
        "17:53",
        "18:38",
        "19:23",
        "20:08"
      ]
    },
    {
      "name": "Rayons de Soleil",
      "city": "Six-Fours-les-Plages",
      "latitude": "43.10731",
      "longitude": "5.81433",
      "stopPointId": "MISTRAL:SIRSOE",
      "accessible": true,
      "times": [
        "7:19",
        "8:04",
        "8:49",
        "9:34",
        "10:19",
        "11:09",
        "11:54",
        "12:39",
        "13:24",
        "14:09",
        "14:54",
        "15:39",
        "16:24",
        "17:09",
        "17:54",
        "18:39",
        "19:24",
        "20:09"
      ]
    },
    {
      "name": "Square des Bains",
      "city": "Six-Fours-les-Plages",
      "latitude": "43.11009",
      "longitude": "5.8139",
      "stopPointId": "MISTRAL:SISBAE",
      "accessible": true,
      "times": [
        "7:19",
        "8:04",
        "8:49",
        "9:34",
        "10:19",
        "11:10",
        "11:55",
        "12:39",
        "13:24",
        "14:09",
        "14:54",
        "15:39",
        "16:25",
        "17:10",
        "17:55",
        "18:40",
        "19:25",
        "20:10"
      ]
    },
    {
      "name": "Square Cesmat",
      "city": "Six-Fours-les-Plages",
      "latitude": "43.11304",
      "longitude": "5.81259",
      "stopPointId": "MISTRAL:SISCEE",
      "accessible": true,
      "times": [
        "- - - - - - - - - - - - - - - - - -"
      ]
    },
    {
      "name": "Plage Bonnegrâce",
      "city": "Six-Fours-les-Plages",
      "latitude": "43.11571",
      "longitude": "5.80798",
      "stopPointId": "MISTRAL:SIPBON",
      "accessible": true,
      "times": [
        "- - - - - - - - - - - - - - - - - -"
      ]
    },
    {
      "name": "La Micheline",
      "city": "Sanary-sur-Mer",
      "latitude": "43.11685",
      "longitude": "5.80653",
      "stopPointId": "MISTRAL:SAMICE",
      "accessible": true,
      "times": [
        "- - - - - - - - - - - - - - - - - -"
      ]
    },
    {
      "name": "Les Gémeaux",
      "city": "Sanary-sur-Mer",
      "latitude": "43.11856",
      "longitude": "5.81006",
      "stopPointId": "MISTRAL:SAGEMS",
      "accessible": true,
      "times": [
        "- - - - - - - - - - - - - - - - - -"
      ]
    },
    {
      "name": "Coopérative",
      "city": "Sanary-sur-Mer",
      "latitude": "43.11943",
      "longitude": "5.81266",
      "stopPointId": "MISTRAL:SACOOS",
      "accessible": true,
      "times": [
        "- - - - - - - - - - - - - - - - - -"
      ]
    },
    {
      "name": "Les Estivales",
      "city": "Sanary-sur-Mer",
      "latitude": "43.12068",
      "longitude": "5.81533",
      "stopPointId": "MISTRAL:SAESTS",
      "accessible": true,
      "times": [
        "- - - - - - - - - - - - - - - - - -"
      ]
    },
    {
      "name": "Les prats",
      "city": "Sanary-sur-Mer",
      "latitude": "43.12158",
      "longitude": "5.82056",
      "stopPointId": "MISTRAL:SAPRAS",
      "accessible": true,
      "times": [
        "- - - - - - - - - - - - - - - - - -"
      ]
    },
    {
      "name": "Gare (Ollioules/Sanary)",
      "city": "Ollioules",
      "latitude": "43.12289",
      "longitude": "5.82255",
      "stopPointId": "MISTRAL:OLGARE",
      "accessible": true,
      "times": [
        "- - - - - - - - - - - - - - - - - -"
      ]
    },
    {
      "name": "Bonnegrâce",
      "city": "Six-Fours-les-Plages",
      "latitude": "43.11266",
      "longitude": "5.81215",
      "stopPointId": "MISTRAL:SIBOGN",
      "accessible": true,
      "times": [
        "7:20",
        "8:05",
        "8:50",
        "9:35",
        "10:20",
        "11:11",
        "11:56",
        "12:40",
        "13:25",
        "14:10",
        "14:55",
        "15:40",
        "16:26",
        "17:11",
        "17:56",
        "18:41",
        "19:26",
        "20:11"
      ]
    }
  ],
  "notes": []
}