{
  "bus_id": "98",
  "lineName": "Tourrache - Terre Promise",
  "direction": "OUTWARD",
  "lineId": "MISTRAL:0098",
  "stops": [
    {
      "name": "Tourrache",
      "city": "La Crau",
      "latitude": "43.14909",
      "longitude": "6.04528",
      "stopPointId": "MISTRAL:GATOUO",
      "accessible": true,
      "times": [
        "6:55",
        "7:40",
        "8:25",
        "9:10",
        "9:55",
        "10:40",
        "11:25",
        "12:10",
        "12:55",
        "13:40",
        "15:10",
        "16:45",
        "18:20",
        "19:45"
      ]
    },
    {
      "name": "ZI Toulon Est",
      "city": "La Garde",
      "latitude": "43.14607",
      "longitude": "6.03978",
      "stopPointId": "MISTRAL:GAZITO",
      "accessible": true,
      "times": [
        "6:56",
        "7:41",
        "8:26",
        "9:11",
        "9:56",
        "10:41",
        "11:26",
        "12:11",
        "12:56",
        "13:41",
        "15:11",
        "16:47",
        "18:21",
        "19:46"
      ]
    },
    {
      "name": "Draguignan",
      "city": "La Garde",
      "latitude": "43.14287",
      "longitude": "6.0373",
      "stopPointId": "MISTRAL:GADRAO",
      "accessible": true,
      "times": [
        "6:57",
        "7:42",
        "8:27",
        "9:12",
        "9:57",
        "10:42",
        "11:27",
        "12:12",
        "12:57",
        "13:42",
        "15:12",
        "16:48",
        "18:22",
        "19:47"
      ]
    },
    {
      "name": "Pôle d'Activité Toulon Est",
      "city": "La Garde",
      "latitude": "43.14068",
      "longitude": "6.03525",
      "stopPointId": "MISTRAL:GAPATO",
      "accessible": true,
      "times": [
        "6:57",
        "7:43",
        "8:28",
        "9:13",
        "9:58",
        "10:43",
        "11:28",
        "12:13",
        "12:58",
        "13:43",
        "15:13",
        "16:49",
        "18:23",
        "19:48"
      ]
    },
    {
      "name": "Zac Pauline",
      "city": "La Garde",
      "latitude": "43.1378",
      "longitude": "6.03366",
      "stopPointId": "MISTRAL:GAZACO",
      "accessible": true,
      "times": [
        "6:58",
        "7:44",
        "8:29",
        "9:14",
        "9:59",
        "10:44",
        "11:29",
        "12:14",
        "12:59",
        "13:44",
        "15:14",
        "16:50",
        "18:24",
        "19:49"
      ]
    },
    {
      "name": "Parc des Sports",
      "city": "La Garde",
      "latitude": "43.1356",
      "longitude": "6.0285",
      "stopPointId": "MISTRAL:GAPDSN",
      "accessible": true,
      "times": [
        "6:59",
        "7:45",
        "8:30",
        "9:15",
        "10:00",
        "10:45",
        "11:30",
        "12:15",
        "13:00",
        "13:45",
        "15:15",
        "16:52",
        "18:25",
        "19:50"
      ]
    },
    {
      "name": "Robespierre",
      "city": "La Garde",
      "latitude": "43.13505",
      "longitude": "6.02491",
      "stopPointId": "MISTRAL:GAROBN",
      "accessible": true,
      "times": [
        "7:00",
        "7:46",
        "8:31",
        "9:16",
        "10:01",
        "10:46",
        "11:31",
        "12:16",
        "13:01",
        "13:46",
        "15:16",
        "16:53",
        "18:26",
        "19:51"
      ]
    },
    {
      "name": "Résédas",
      "city": "La Garde",
      "latitude": "43.13309",
      "longitude": "6.02079",
      "stopPointId": "MISTRAL:GARESN",
      "accessible": true,
      "times": [
        "7:01",
        "7:47",
        "8:32",
        "9:17",
        "10:02",
        "10:47",
        "11:32",
        "12:17",
        "13:02",
        "13:47",
        "15:17",
        "16:54",
        "18:27",
        "19:52"
      ]
    },
    {
      "name": "Mocquet",
      "city": "La Garde",
      "latitude": "43.13086",
      "longitude": "6.02227",
      "stopPointId": "MISTRAL:GAMOCS",
      "accessible": true,
      "times": [
        "7:02",
        "7:48",
        "8:33",
        "9:18",
        "10:03",
        "10:48",
        "11:33",
        "12:18",
        "13:03",
        "13:48",
        "15:18",
        "16:55",
        "18:28",
        "19:53"
      ]
    },
    {
      "name": "Liserons",
      "city": "La Garde",
      "latitude": "43.12912",
      "longitude": "6.0214",
      "stopPointId": "MISTRAL:GALISO",
      "accessible": true,
      "times": [
        "7:03",
        "7:49",
        "8:34",
        "9:19",
        "10:04",
        "10:49",
        "11:34",
        "12:19",
        "13:04",
        "13:49",
        "15:19",
        "16:56",
        "18:29",
        "19:54"
      ]
    },
    {
      "name": "Herminier (La Garde)",
      "city": "La Garde",
      "latitude": "43.12871",
      "longitude": "6.01882",
      "stopPointId": "MISTRAL:GAHERN",
      "accessible": true,
      "times": [
        "7:03",
        "7:49",
        "8:34",
        "9:19",
        "10:04",
        "10:50",
        "11:35",
        "12:19",
        "13:04",
        "13:49",
        "15:19",
        "16:56",
        "18:29",
        "19:54"
      ]
    },
    {
      "name": "Agora",
      "city": "La Garde",
      "latitude": "43.12966",
      "longitude": "6.01722",
      "stopPointId": "MISTRAL:GAAGOE",
      "accessible": true,
      "times": [
        "7:04",
        "7:50",
        "8:35",
        "9:20",
        "10:05",
        "10:50",
        "11:35",
        "12:20",
        "13:05",
        "13:50",
        "15:20",
        "16:57",
        "18:30",
        "19:55"
      ]
    },
    {
      "name": "Tristan",
      "city": "La Garde",
      "latitude": "43.12963",
      "longitude": "6.01566",
      "stopPointId": "MISTRAL:GATRIN",
      "accessible": true,
      "times": [
        "7:04",
        "7:50",
        "8:35",
        "9:20",
        "10:05",
        "10:51",
        "11:36",
        "12:20",
        "13:05",
        "13:50",
        "15:20",
        "16:57",
        "18:30",
        "19:55"
      ]
    },
    {
      "name": "Jardin Veyret",
      "city": "La Garde",
      "latitude": "43.12856",
      "longitude": "6.01393",
      "stopPointId": "MISTRAL:GAJAVO",
      "accessible": true,
      "times": [
        "7:05",
        "7:51",
        "8:36",
        "9:21",
        "10:06",
        "10:52",
        "11:37",
        "12:21",
        "13:06",
        "13:51",
        "15:21",
        "16:58",
        "18:31",
        "19:56"
      ]
    },
    {
      "name": "Cimetière (La Garde)",
      "city": "La Garde",
      "latitude": "43.13128",
      "longitude": "6.01067",
      "stopPointId": "MISTRAL:GACIME",
      "accessible": true,
      "times": [
        "7:06",
        "7:52",
        "8:37",
        "9:22",
        "10:07",
        "10:53",
        "11:38",
        "12:22",
        "13:07",
        "13:52",
        "15:22",
        "16:59",
        "18:32",
        "19:57"
      ]
    },
    {
      "name": "Montesarchio",
      "city": "La Garde",
      "latitude": "43.1319",
      "longitude": "6.00843",
      "stopPointId": "MISTRAL:GAMONO",
      "accessible": true,
      "times": [
        "7:06",
        "7:52",
        "8:37",
        "9:22",
        "10:07",
        "10:53",
        "11:38",
        "12:23",
        "13:08",
        "13:53",
        "15:23",
        "17:00",
        "18:33",
        "19:58"
      ]
    },
    {
      "name": "Thouar (La Garde)",
      "city": "La Garde",
      "latitude": "43.12889",
      "longitude": "6.00823",
      "stopPointId": "MISTRAL:GATHOO",
      "accessible": true,
      "times": [
        "7:07",
        "7:53",
        "8:38",
        "9:23",
        "10:08",
        "10:54",
        "11:39",
        "12:24",
        "13:09",
        "13:54",
        "15:24",
        "17:01",
        "18:34",
        "19:59"
      ]
    },
    {
      "name": "Vieux Puits",
      "city": "La Garde",
      "latitude": "43.12667",
      "longitude": "6.00625",
      "stopPointId": "MISTRAL:GAVPUN",
      "accessible": true,
      "times": [
        "7:08",
        "7:54",
        "8:39",
        "9:24",
        "10:09",
        "10:55",
        "11:40",
        "12:25",
        "13:10",
        "13:55",
        "15:25",
        "17:02",
        "18:35",
        "20:00"
      ]
    },
    {
      "name": "Delage",
      "city": "La Garde",
      "latitude": "43.12498",
      "longitude": "6.00567",
      "stopPointId": "MISTRAL:GADELS",
      "accessible": true,
      "times": [
        "7:09",
        "7:55",
        "8:40",
        "9:25",
        "10:10",
        "10:56",
        "11:41",
        "12:26",
        "13:11",
        "13:56",
        "15:26",
        "17:03",
        "18:36",
        "20:01"
      ]
    },
    {
      "name": "Hôtel de Ville",
      "city": "La Garde",
      "latitude": "43.12424",
      "longitude": "6.00938",
      "stopPointId": "MISTRAL:GAHVIO",
      "accessible": true,
      "times": [
        "7:10",
        "7:57",
        "8:42",
        "9:27",
        "10:12",
        "10:58",
        "11:43",
        "12:28",
        "13:13",
        "13:58",
        "15:28",
        "17:05",
        "18:37",
        "20:02"
      ]
    },
    {
      "name": "Poste (La Garde)",
      "city": "La Garde",
      "latitude": "43.12225",
      "longitude": "6.00998",
      "stopPointId": "MISTRAL:GAPOSO",
      "accessible": true,
      "times": [
        "7:10",
        "7:58",
        "8:43",
        "9:28",
        "10:13",
        "10:59",
        "11:44",
        "12:29",
        "13:14",
        "13:59",
        "15:29",
        "17:06",
        "18:38",
        "20:03"
      ]
    },
    {
      "name": "Gymnase/Gare",
      "city": "La Garde",
      "latitude": "43.12022",
      "longitude": "6.01003",
      "stopPointId": "MISTRAL:GAGYNN",
      "accessible": true,
      "times": [
        "7:11",
        "7:58",
        "8:43",
        "9:28",
        "10:13",
        "11:00",
        "11:45",
        "12:29",
        "13:14",
        "14:00",
        "15:30",
        "17:07",
        "18:39",
        "20:04"
      ]
    },
    {
      "name": "Rolland",
      "city": "La Garde",
      "latitude": "43.11864",
      "longitude": "6.00567",
      "stopPointId": "MISTRAL:GAROLN",
      "accessible": true,
      "times": [
        "7:11",
        "7:59",
        "8:44",
        "9:29",
        "10:14",
        "11:01",
        "11:46",
        "12:30",
        "13:15",
        "14:01",
        "15:31",
        "17:08",
        "18:40",
        "20:05"
      ]
    },
    {
      "name": "Beauséjour (La Garde)",
      "city": "La Garde",
      "latitude": "43.1207",
      "longitude": "6.00527",
      "stopPointId": "MISTRAL:GABSJE",
      "accessible": true,
      "times": [
        "7:12",
        "8:00",
        "8:45",
        "9:30",
        "10:15",
        "11:02",
        "11:47",
        "12:31",
        "13:16",
        "14:02",
        "15:32",
        "17:09",
        "18:41",
        "20:06"
      ]
    },
    {
      "name": "Marie Curie",
      "city": "La Garde",
      "latitude": "43.12085",
      "longitude": "6.00399",
      "stopPointId": "MISTRAL:GAMCUN",
      "accessible": true,
      "times": [
        "7:12",
        "8:00",
        "8:45",
        "9:30",
        "10:15",
        "11:02",
        "11:47",
        "12:31",
        "13:16",
        "14:02",
        "15:32",
        "17:09",
        "18:41",
        "20:06"
      ]
    },
    {
      "name": "Prévert",
      "city": "La Garde",
      "latitude": "43.12018",
      "longitude": "6.0011",
      "stopPointId": "MISTRAL:GAPREN",
      "accessible": true,
      "times": [
        "7:13",
        "8:01",
        "8:46",
        "9:31",
        "10:16",
        "11:03",
        "11:48",
        "12:32",
        "13:17",
        "14:03",
        "15:33",
        "17:10",
        "18:42",
        "20:07"
      ]
    },
    {
      "name": "Brassens",
      "city": "La Garde",
      "latitude": "43.11901",
      "longitude": "5.99905",
      "stopPointId": "MISTRAL:GABRAO",
      "accessible": true,
      "times": [
        "7:13",
        "8:01",
        "8:46",
        "9:31",
        "10:16",
        "11:03",
        "11:48",
        "12:32",
        "13:17",
        "14:03",
        "15:33",
        "17:10",
        "18:42",
        "20:07"
      ]
    },
    {
      "name": "Aubépine",
      "city": "La Garde",
      "latitude": "43.11639",
      "longitude": "5.99826",
      "stopPointId": "MISTRAL:GAAUBO",
      "accessible": true,
      "times": [
        "7:13",
        "8:01",
        "8:46",
        "9:31",
        "10:17",
        "11:04",
        "11:49",
        "12:33",
        "13:18",
        "14:04",
        "15:34",
        "17:11",
        "18:43",
        "20:08"
      ]
    },
    {
      "name": "Citronniers",
      "city": "La Garde",
      "latitude": "43.1171",
      "longitude": "6.00275",
      "stopPointId": "MISTRAL:GACITS",
      "accessible": true,
      "times": [
        "7:15",
        "8:03",
        "8:48",
        "9:33",
        "10:18",
        "11:05",
        "11:50",
        "12:34",
        "13:19",
        "14:05",
        "15:35",
        "17:12",
        "18:44",
        "20:09"
      ]
    },
    {
      "name": "Papin",
      "city": "La Garde",
      "latitude": "43.113",
      "longitude": "6.00129",
      "stopPointId": "MISTRAL:GAPAPO",
      "accessible": true,
      "times": [
        "7:16",
        "8:04",
        "8:49",
        "9:34",
        "10:20",
        "11:07",
        "11:52",
        "12:36",
        "13:21",
        "14:07",
        "15:37",
        "17:14",
        "18:46",
        "20:11"
      ]
    },
    {
      "name": "Pont de la Clue",
      "city": "Le Pradet",
      "latitude": "43.10818",
      "longitude": "5.99823",
      "stopPointId": "MISTRAL:GACLUO",
      "accessible": true,
      "times": [
        "7:17",
        "8:05",
        "8:50",
        "9:35",
        "10:21",
        "11:08",
        "11:53",
        "12:37",
        "13:22",
        "14:08",
        "15:38",
        "17:15",
        "18:47",
        "20:12"
      ]
    },
    {
      "name": "Marthoune",
      "city": "Le Pradet",
      "latitude": "43.10717",
      "longitude": "5.99668",
      "stopPointId": "MISTRAL:GAMARN",
      "accessible": true,
      "times": [
        "7:17",
        "8:05",
        "8:50",
        "9:35",
        "10:21",
        "11:08",
        "11:53",
        "12:37",
        "13:22",
        "14:08",
        "15:38",
        "17:15",
        "18:47",
        "20:12"
      ]
    },
    {
      "name": "St Pierre",
      "city": "La Garde",
      "latitude": "43.10688",
      "longitude": "5.99207",
      "stopPointId": "MISTRAL:GAPIEN",
      "accessible": true,
      "times": [
        "7:18",
        "8:06",
        "8:51",
        "9:36",
        "10:22",
        "11:09",
        "11:54",
        "12:38",
        "13:23",
        "14:09",
        "15:39",
        "17:16",
        "18:48",
        "20:13"
      ]
    },
    {
      "name": "Chapelle",
      "city": "La Garde",
      "latitude": "43.10757",
      "longitude": "5.99127",
      "stopPointId": "MISTRAL:GACHAE",
      "accessible": true,
      "times": [
        "7:19",
        "8:07",
        "8:52",
        "9:37",
        "10:23",
        "11:10",
        "11:55",
        "12:39",
        "13:24",
        "14:10",
        "15:40",
        "17:17",
        "18:49",
        "20:14"
      ]
    },
    {
      "name": "Loti",
      "city": "La Garde",
      "latitude": "43.11038",
      "longitude": "5.99013",
      "stopPointId": "MISTRAL:GALOTE",
      "accessible": true,
      "times": [
        "7:20",
        "8:08",
        "8:53",
        "9:38",
        "10:24",
        "11:11",
        "11:56",
        "12:40",
        "13:25",
        "14:11",
        "15:41",
        "17:18",
        "18:50",
        "20:15"
      ]
    },
    {
      "name": "Le Mas",
      "city": "La Garde",
      "latitude": "43.11171",
      "longitude": "5.98773",
      "stopPointId": "MISTRAL:GALEME",
      "accessible": true,
      "times": [
        "7:20",
        "8:08",
        "8:53",
        "9:38",
        "10:24",
        "11:11",
        "11:56",
        "12:40",
        "13:25",
        "14:11",
        "15:41",
        "17:18",
        "18:50",
        "20:15"
      ]
    },
    {
      "name": "Geneviève",
      "city": "La Garde",
      "latitude": "43.1111",
      "longitude": "5.9844",
      "stopPointId": "MISTRAL:GAGENO",
      "accessible": true,
      "times": [
        "7:22",
        "8:10",
        "8:55",
        "9:40",
        "10:26",
        "11:13",
        "11:58",
        "12:42",
        "13:27",
        "14:13",
        "15:43",
        "17:20",
        "18:52",
        "20:17"
      ]
    },
    {
      "name": "Outremer",
      "city": "La Garde",
      "latitude": "43.10898",
      "longitude": "5.98428",
      "stopPointId": "MISTRAL:GAOUTO",
      "accessible": true,
      "times": [
        "7:22",
        "8:10",
        "8:55",
        "9:40",
        "10:26",
        "11:13",
        "11:58",
        "12:42",
        "13:27",
        "14:13",
        "15:43",
        "17:20",
        "18:52",
        "20:17"
      ]
    },
    {
      "name": "Sully",
      "city": "La Garde",
      "latitude": "43.10818",
      "longitude": "5.98753",
      "stopPointId": "MISTRAL:GASULS",
      "accessible": true,
      "times": [
        "7:23",
        "8:11",
        "8:56",
        "9:41",
        "10:27",
        "11:14",
        "11:59",
        "12:43",
        "13:28",
        "14:14",
        "15:44",
        "17:21",
        "18:53",
        "20:18"
      ]
    },
    {
      "name": "Terre Promise",
      "city": "La Garde",
      "latitude": "43.10762",
      "longitude": "5.98887",
      "stopPointId": "MISTRAL:GAPRON",
      "accessible": true,
      "times": [
        "7:24",
        "8:12",
        "8:57",
        "9:42",
        "10:28",
        "11:15",
        "12:00",
        "12:44",
        "13:29",
        "14:15",
        "15:45",
        "17:22",
        "18:54",
        "20:19"
      ]
    }
  ],
  "notes": []
}