{
  "bus_id": "28",
  "lineName": "Sablettes -  Hauts de St Mandrier",
  "direction": "OUTWARD",
  "lineId": "MISTRAL:0028",
  "stops": [
    {
      "name": "Seyne Centre",
      "city": "La Seyne-sur-Mer",
      "latitude": "43.10121",
      "longitude": "5.8834",
      "stopPointId": "MISTRAL:SECENN",
      "accessible": true,
      "times": [
        "- - - - - - - - - - - - -"
      ]
    },
    {
      "name": "Kennedy",
      "city": "La Seyne-sur-Mer",
      "latitude": "43.09852",
      "longitude": "5.88412",
      "stopPointId": "MISTRAL:SEKENS",
      "accessible": true,
      "times": [
        "- - - - - - - - - - - - -"
      ]
    },
    {
      "name": "Croisement",
      "city": "La Seyne-sur-Mer",
      "latitude": "43.09544",
      "longitude": "5.88311",
      "stopPointId": "MISTRAL:SECROO",
      "accessible": true,
      "times": [
        "- - - - - - - - - - - - -"
      ]
    },
    {
      "name": "Marsouin",
      "city": "La Seyne-sur-Mer",
      "latitude": "43.09343",
      "longitude": "5.88122",
      "stopPointId": "MISTRAL:SEMARO",
      "accessible": true,
      "times": [
        "- - - - - - - - - - - - -"
      ]
    },
    {
      "name": "Ivaldi",
      "city": "La Seyne-sur-Mer",
      "latitude": "43.08887",
      "longitude": "5.88141",
      "stopPointId": "MISTRAL:SEIVAO",
      "accessible": true,
      "times": [
        "- - - - - - - - - - - - -"
      ]
    },
    {
      "name": "Cerisiers (La Seyne)",
      "city": "La Seyne-sur-Mer",
      "latitude": "43.08557",
      "longitude": "5.88097",
      "stopPointId": "MISTRAL:SECERO",
      "accessible": true,
      "times": [
        "- - - - - - - - - - - - -"
      ]
    },
    {
      "name": "Pas du Loup",
      "city": "La Seyne-sur-Mer",
      "latitude": "43.08327",
      "longitude": "5.88164",
      "stopPointId": "MISTRAL:SELOUO",
      "accessible": true,
      "times": [
        "- - - - - - - - - - - - -"
      ]
    },
    {
      "name": "Mar Vivo",
      "city": "La Seyne-sur-Mer",
      "latitude": "43.08109",
      "longitude": "5.88713",
      "stopPointId": "MISTRAL:SEMVIS",
      "accessible": true,
      "times": [
        "- - - - - - - - - - - - -"
      ]
    },
    {
      "name": "Allée Marie",
      "city": "La Seyne-sur-Mer",
      "latitude": "43.0805",
      "longitude": "5.88902",
      "stopPointId": "MISTRAL:SEALMS",
      "accessible": true,
      "times": [
        "- - - - - - - - - - - - -"
      ]
    },
    {
      "name": "Casino",
      "city": "La Seyne-sur-Mer",
      "latitude": "43.08104",
      "longitude": "5.89108",
      "stopPointId": "MISTRAL:SECASE",
      "accessible": true,
      "times": [
        "- - - - - - - - - - - - -"
      ]
    },
    {
      "name": "Rives d'Or",
      "city": "La Seyne-sur-Mer",
      "latitude": "43.08113",
      "longitude": "5.89378",
      "stopPointId": "MISTRAL:SERIVS",
      "accessible": true,
      "times": [
        "- - - - - - - - - - - - -"
      ]
    },
    {
      "name": "Sablettes Terminus",
      "city": "La Seyne-sur-Mer",
      "latitude": "43.08049",
      "longitude": "5.89645",
      "stopPointId": "MISTRAL:SESABT",
      "accessible": true,
      "times": [
        "7:30",
        "8:30",
        "9:30",
        "10:30",
        "11:40",
        "12:40",
        "13:45",
        "14:45",
        "15:45",
        "16:45",
        "17:45",
        "18:45",
        "19:45"
      ]
    },
    {
      "name": "Sablettes",
      "city": "La Seyne-sur-Mer",
      "latitude": "43.08032",
      "longitude": "5.89652",
      "stopPointId": "MISTRAL:SESABS",
      "accessible": true,
      "times": [
        "7:32",
        "8:32",
        "9:31",
        "10:31",
        "11:41",
        "12:42",
        "13:47",
        "14:47",
        "15:47",
        "16:47",
        "17:47",
        "18:47",
        "19:47"
      ]
    },
    {
      "name": "Pin Rolland",
      "city": "Saint-Mandrier-sur-Mer",
      "latitude": "43.0771",
      "longitude": "5.90624",
      "stopPointId": "MISTRAL:SMPINN",
      "accessible": true,
      "times": [
        "7:34",
        "8:34",
        "9:34",
        "10:34",
        "11:44",
        "12:45",
        "13:50",
        "14:50",
        "15:50",
        "16:50",
        "17:50",
        "18:50",
        "19:50"
      ]
    },
    {
      "name": "Ste Asile",
      "city": "Saint-Mandrier-sur-Mer",
      "latitude": "43.07372",
      "longitude": "5.90804",
      "stopPointId": "MISTRAL:SMASIO",
      "accessible": true,
      "times": [
        "7:35",
        "8:35",
        "9:35",
        "10:35",
        "11:45",
        "12:46",
        "13:51",
        "14:51",
        "15:51",
        "16:51",
        "17:51",
        "18:51",
        "19:51"
      ]
    },
    {
      "name": "Marégau",
      "city": "Saint-Mandrier-sur-Mer",
      "latitude": "43.07167",
      "longitude": "5.90734",
      "stopPointId": "MISTRAL:SMMARE",
      "accessible": true,
      "times": [
        "7:36",
        "8:36",
        "9:36",
        "10:36",
        "11:46",
        "12:47",
        "13:52",
        "14:52",
        "15:52",
        "16:52",
        "17:52",
        "18:52",
        "19:52"
      ]
    },
    {
      "name": "Nouméa",
      "city": "Saint-Mandrier-sur-Mer",
      "latitude": "43.07191",
      "longitude": "5.91224",
      "stopPointId": "MISTRAL:SMNOUS",
      "accessible": true,
      "times": [
        "7:37",
        "8:37",
        "9:37",
        "10:37",
        "11:47",
        "12:48",
        "13:53",
        "14:53",
        "15:53",
        "16:53",
        "17:53",
        "18:53",
        "19:53"
      ]
    },
    {
      "name": "Baou",
      "city": "Saint-Mandrier-sur-Mer",
      "latitude": "43.07261",
      "longitude": "5.91379",
      "stopPointId": "MISTRAL:SMBAON",
      "accessible": true,
      "times": [
        "7:38",
        "8:38",
        "9:38",
        "10:38",
        "11:48",
        "12:49",
        "13:54",
        "14:54",
        "15:54",
        "16:54",
        "17:54",
        "18:54",
        "19:54"
      ]
    },
    {
      "name": "Figuiers",
      "city": "Saint-Mandrier-sur-Mer",
      "latitude": "43.07416",
      "longitude": "5.91099",
      "stopPointId": "MISTRAL:SMFIGN",
      "accessible": true,
      "times": [
        "7:39",
        "8:39",
        "9:39",
        "10:39",
        "11:49",
        "12:49",
        "13:54",
        "14:55",
        "15:55",
        "16:54",
        "17:54",
        "18:54",
        "19:54"
      ]
    },
    {
      "name": "Ste Asile",
      "city": "Saint-Mandrier-sur-Mer",
      "latitude": "43.07504",
      "longitude": "5.90809",
      "stopPointId": "MISTRAL:SMASIN",
      "accessible": true,
      "times": [
        "7:39",
        "8:39",
        "9:39",
        "10:39",
        "11:49",
        "12:50",
        "13:55",
        "14:55",
        "15:55",
        "16:55",
        "17:55",
        "18:55",
        "19:55"
      ]
    },
    {
      "name": "Pin Rolland",
      "city": "Saint-Mandrier-sur-Mer",
      "latitude": "43.07699",
      "longitude": "5.90641",
      "stopPointId": "MISTRAL:SMPINS",
      "accessible": true,
      "times": [
        "7:40",
        "8:40",
        "9:40",
        "10:40",
        "11:50",
        "12:51",
        "13:56",
        "14:56",
        "15:56",
        "16:56",
        "17:56",
        "18:56",
        "19:55"
      ]
    },
    {
      "name": "Vert Bois",
      "city": "Saint-Mandrier-sur-Mer",
      "latitude": "43.07821",
      "longitude": "5.91104",
      "stopPointId": "MISTRAL:SMVBOE",
      "accessible": true,
      "times": [
        "7:41",
        "8:41",
        "9:41",
        "10:41",
        "11:51",
        "12:52",
        "13:57",
        "14:57",
        "15:57",
        "16:57",
        "17:57",
        "18:57",
        "19:56"
      ]
    },
    {
      "name": "Président",
      "city": "Saint-Mandrier-sur-Mer",
      "latitude": "43.07924",
      "longitude": "5.92304",
      "stopPointId": "MISTRAL:SMPREO",
      "accessible": true,
      "times": [
        "7:45",
        "8:45",
        "9:45",
        "10:45",
        "11:55",
        "12:56",
        "14:01",
        "15:01",
        "16:01",
        "17:01",
        "18:01",
        "19:01",
        "20:00"
      ]
    },
    {
      "name": "Mimosas",
      "city": "Saint-Mandrier-sur-Mer",
      "latitude": "43.07791",
      "longitude": "5.92546",
      "stopPointId": "MISTRAL:SMMIMS",
      "accessible": true,
      "times": [
        "7:46",
        "8:46",
        "9:46",
        "10:46",
        "11:56",
        "12:56",
        "14:01",
        "15:02",
        "16:02",
        "17:01",
        "18:01",
        "19:01",
        "20:00"
      ]
    },
    {
      "name": "E. d'Orves",
      "city": "Saint-Mandrier-sur-Mer",
      "latitude": "43.0768",
      "longitude": "5.92718",
      "stopPointId": "MISTRAL:SMORVO",
      "accessible": true,
      "times": [
        "7:46",
        "8:46",
        "9:46",
        "10:46",
        "11:56",
        "12:57",
        "14:02",
        "15:02",
        "16:02",
        "17:02",
        "18:02",
        "19:02",
        "20:01"
      ]
    },
    {
      "name": "Clément",
      "city": "Saint-Mandrier-sur-Mer",
      "latitude": "43.07509",
      "longitude": "5.92786",
      "stopPointId": "MISTRAL:SMCLEO",
      "accessible": true,
      "times": [
        "7:47",
        "8:47",
        "9:47",
        "10:47",
        "11:57",
        "12:57",
        "14:02",
        "15:03",
        "16:03",
        "17:02",
        "18:02",
        "19:02",
        "20:01"
      ]
    },
    {
      "name": "Caravelle",
      "city": "Saint-Mandrier-sur-Mer",
      "latitude": "43.07397",
      "longitude": "5.93079",
      "stopPointId": "MISTRAL:SMCARS",
      "accessible": true,
      "times": [
        "7:48",
        "8:48",
        "9:48",
        "10:48",
        "11:58",
        "12:58",
        "14:03",
        "15:04",
        "16:04",
        "17:03",
        "18:03",
        "19:03",
        "20:02"
      ]
    },
    {
      "name": "St Georges",
      "city": "Saint-Mandrier-sur-Mer",
      "latitude": "43.07447",
      "longitude": "5.93271",
      "stopPointId": "MISTRAL:SMGEOE",
      "accessible": true,
      "times": [
        "7:48",
        "8:48",
        "9:48",
        "10:48",
        "11:58",
        "12:58",
        "14:03",
        "15:04",
        "16:04",
        "17:03",
        "18:03",
        "19:03",
        "20:02"
      ]
    },
    {
      "name": "Hauts de St Mandrier",
      "city": "Saint-Mandrier-sur-Mer",
      "latitude": "43.07639",
      "longitude": "5.93389",
      "stopPointId": "MISTRAL:SMHSMT",
      "accessible": true,
      "times": [
        "7:49",
        "8:49",
        "9:49",
        "10:49",
        "11:59",
        "12:59",
        "14:04",
        "15:05",
        "16:05",
        "17:04",
        "18:04",
        "19:04",
        "20:03"
      ]
    }
  ],
  "notes": [],
  "cachedAt": "2025-12-14T22:14:46.731Z",
  "totalStops": 29,
  "totalTimes": 245
}